[
  { "id": "park-331693422", "name": "常盤公園",               "location": { "lat": 34.6672325, "lng": 133.7397333 } },
  { "id": "park-331693433", "name": "溝口公園",               "location": { "lat": 34.6733141, "lng": 133.7339203 } },
  { "id": "park-331693453", "name": "総社北公園",             "location": { "lat": 34.6969456, "lng": 133.7476848 } },
  { "id": "park-617645544", "name": "清音ふるさとふれあい広場", "location": { "lat": 34.6547499, "lng": 133.7538642 } },
  { "id": "park-617646360", "name": "角力取山公園",           "location": { "lat": 34.6592115, "lng": 133.7729607 } },
  { "id": "park-660052301", "name": "山手スポーツ広場",       "location": { "lat": 34.6542741, "lng": 133.7820655 } },
  { "id": "park-660053247", "name": "総社市スポーツセンター", "location": { "lat": 34.6642846, "lng": 133.7493829 } },
  { "id": "park-800310611", "name": "えきなん公園",           "location": { "lat": 34.6673403, "lng": 133.7443356 } },
  { "id": "park-1225361975", "name": "いもじ分水",            "location": { "lat": 34.6785263, "lng": 133.7336343 } },
  { "id": "park-1227090372", "name": "おさんぽ小道",          "location": { "lat": 34.6742865, "lng": 133.7358647 } },
  { "id": "park-1236763824", "name": "浅尾前公園",            "location": { "lat": 34.6786289, "lng": 133.7397718 } },
  { "id": "park-1258479528", "name": "三つ溝遊園地",          "location": { "lat": 34.6755204, "lng": 133.7391135 } },
  { "id": "park-1258481409", "name": "高梁川河川敷グラウンド","location": { "lat": 34.6771848, "lng": 133.7242884 } },
  { "id": "park-1280158311", "name": "雪舟生誕地公園",        "location": { "lat": 34.6877997, "lng": 133.7981528 } },
  { "id": "park-1315225615", "name": "松ヶ鼻ファミリーパーク","location": { "lat": 34.6987194, "lng": 133.7857011 } }
]
